[  
   {  
      "title":"玉美人孕婦裝觀光工廠",
      "features":"台灣媽咪MIT好孕到",
      "tel":"(02)89669762",
      "address":"新北市板橋區四川路2段16巷10號5樓",
      "twd97X":"296041.5",
      "twd97Y":"2765560.32",
      "lon":"121.456114459642",
      "lat":"24.9973394829031"
   },
   {  
      "title":"大黑松小倆口牛軋糖博物館",
      "features":"濃純潔白的愛情物語",
      "tel":"(02)22687222",
      "address":"新北市土城區自強街31-2號",
      "twd97X":"293645.28",
      "twd97Y":"2762719.6",
      "lon":"121.432286992435",
      "lat":"24.971763931877"
   },
   {  
      "title":"維格餅家鳳梨酥夢工場",
      "features":"鳳梨小金磚好運旺旺來",
      "tel":"(02)22919131",
      "address":"新北市五股區成泰路1段87號",
      "twd97X":"293886.56",
      "twd97Y":"2773467.7",
      "lon":"121.43501853827",
      "lat":"25.0687918552203"
   },
   {  
      "title":"茶山房肥皂文化體驗館",
      "features":"練過輕功的天然肥皂",
      "tel":"(02)26714400",
      "address":"新北市三峽區白雞路64-11號",
      "twd97X":"287378",
      "twd97Y":"2756109",
      "lon":"121.370035152",
      "lat":"24.9122489611"
   },
   {  
      "title":"琉傳天下藝術館",
      "features":"光與熱共舞的華麗演出",
      "tel":"(02)26256972",
      "address":"新北市淡水區忠寮里口湖子1-7號",
      "twd97X":"298004.3",
      "twd97Y":"2786748.55",
      "lon":"121.476298662415",
      "lat":"25.1885650322112"
   },
   {  
      "title":"手信坊創意和菓子文化館",
      "features":"觸動五感的日本文化享受",
      "tel":"(02)82620506",
      "address":"新北市土城區國際路55號",
      "twd97X":"297121.12",
      "twd97Y":"2763420.86",
      "lon":"121.46673662329",
      "lat":"24.9779910599743"
   },
   {  
      "title":"許新旺陶瓷紀念博物館",
      "features":"你儂我儂陶藝傳情",
      "tel":"(02)26789571",
      "address":"新北市鶯歌區尖山埔路81號",
      "twd97X":"285114.31",
      "twd97Y":"2760387.61",
      "lon":"121.347733724923",
      "lat":"24.9509314341928"
   },
   {  
      "title":"宏洲磁磚觀光工廠",
      "features":"把泥土變黃金的超大印鈔機",
      "tel":"(02)86782786",
      "address":"新北市鶯歌區中正三路230巷16號",
      "twd97X":"283357.07",
      "twd97Y":"2759073.61",
      "lon":"121.330300552021",
      "lat":"24.9391078795267"
   },
   {  
      "title":"工研益壽多文化館",
      "features":"酸溜溜的健康祕寶",
      "tel":"(02)27781981",
      "address":"新北市淡水區埤島里46-7號",
      "twd97X":"295761.01",
      "twd97Y":"2787287.9",
      "lon":"121.454059351871",
      "lat":"25.1935041475156"
   },
   {  
      "title":"光淙金工藝術館",
      "features":"神秘珠寶盒裡的秘密",
      "tel":"(02)86014430",
      "address":"新北市林口區粉寮路1段104號",
      "twd97X":"290360.84",
      "twd97Y":"2774911.59",
      "lon":"121.400113464811",
      "lat":"25.0819256766739"
   },
   {  
      "title":"台灣不二衛生套知識館",
      "features":"最柔軟卻最堅韌的力量",
      "tel":"(02)37655005",
      "address":"新北市淡水區行忠路132號",
      "twd97X":"295814.19",
      "twd97Y":"2787884.3",
      "lon":"121.454607002228",
      "lat":"25.1988867818388"
   },
   {  
      "title":"王鼎時間科藝體驗館",
      "features":"結合科藝 抽象時間具體化",
      "tel":"(02)22682999",
      "address":"新北市土城區大暖路136號",
      "twd97X":"292784.38",
      "twd97Y":"2760951.66",
      "lon":"121.423705691318",
      "lat":"24.9558271667475"
   },
   {  
      "title":"台灣農林大寮茶文館",
      "features":"「茶文化館」重現茶場風華",
      "tel":"(02)2668-1928",
      "address":"新北市三峽區竹崙路142巷2號",
      "twd97X":"293877.84",
      "twd97Y":"2755795.68",
      "lon":"121.434371111815",
      "lat":"24.9092466702459"
   },
   {  
      "title":"四季紙品手創館",
      "features":"紙品的另類創意",
      "tel":"(02)22238115",
      "address":"新北市中和市建康路2-2號",
      "twd97X":"299021.44",
      "twd97Y":"2765871.95",
      "lon":"121.485645762",
      "lat":"25.000059424"
   },
   {  
      "title":"吳福洋襪子故事館",
      "features":"老襪廠對品質的堅持",
      "tel":"(02)26016503",
      "address":"新北市林口區工二工業區工九路3號",
      "twd97X":"289208.83",
      "twd97Y":"2774336.96",
      "lon":"121.388676949",
      "lat":"25.0767681686"
   },
   {  
      "title":"阮的肉干產業概念館",
      "features":"食尚的創意肉干",
      "tel":"(02) 29805576",
      "address":"新北市三重區重新路4段27號1樓",
      "twd97X":"299278.93",
      "twd97Y":"2772282.72",
      "lon":"121.488425726637",
      "lat":"25.0579276486122"
   },
   {  
      "title":"坪林茶產業文化館",
      "features":"茶農與土地的故事",
      "tel":"(02)26657221",
      "address":"新北市坪林區坪林街103號",
      "twd97X":"321873",
      "twd97Y":"2759066",
      "lon":"121.711666605",
      "lat":"24.9377059564"
   },
   {  
      "title":"市拿陶藝文化館",
      "features":"追求極致-高貴華美的陶瓷工藝",
      "tel":"(02)26792102",
      "address":"新北市鶯歌區中正一路223巷19號",
      "twd97X":"285767.43",
      "twd97Y":"2761187.14",
      "lon":"121.354222051442",
      "lat":"24.9581345402934"
   },
   {  
      "title":"印地安皮革創意工場",
      "features":"天然無毒的環保皮革",
      "tel":"(02)29991516",
      "address":"新北市三重區中興北街136巷28號",
      "twd97X":"297187.59",
      "twd97Y":"2772047.07",
      "lon":"121.467689954905",
      "lat":"25.0558669255088"
   },
   {  
      "title":"新太源藝術工坊-花紙文化館",
      "features":"藝術是生活的品味",
      "tel":"(02)86774311 　　",
      "address":"新北市鶯歌區建國路485號",
      "twd97X":"284335.21",
      "twd97Y":"2760579.19",
      "lon":"121.340023277103",
      "lat":"24.9526788674202"
   },
   {  
      "title":"亞洛美精靈國度",
      "features":"汽車芳香、居家香氛領導品牌",
      "tel":"(02)26772170",
      "address":"新北市鶯歌區中正三路156巷59號",
      "twd97X":"283607.1",
      "twd97Y":"2759213.77",
      "lon":"121.332779683318",
      "lat":"24.9403677495319"
   },
   {  
      "title":"安美得傷口照護產業文化館",
      "features":"供妥善的傷口照護解決方案",
      "tel":"(02)22982151",
      "address":"新北市五股區五權路7巷6號8樓",
      "twd97X":"295231.33",
      "twd97Y":"2773075.01",
      "lon":"121.448335165732",
      "lat":"25.0652070038611"
   }
]